{
  "type" : "FeatureCollection",
  "features" : [
    {
      "type" : "Feature",
      "id" : 0,
      "geometry" : {
        "type" : "Point",
        "coordinates" : [
          114.46829,
          23.111768000000001
        ]
      },
      "properties" : {
        "FID" : 0,
        "名字" : "惠州市公安局水口派出所",
        "经度" : 114.46829,
        "维度" : 23.111768000000001,
        "地址" : "惠州市惠城区平安路27号",
        "电话" : "(0752)2312110"
      }
    },
    {
      "type" : "Feature",
      "id" : 1,
      "geometry" : {
        "type" : "Point",
        "coordinates" : [
          114.429489,
          23.071937999999999
        ]
      },
      "properties" : {
        "FID" : 1,
        "名字" : "惠州市公安局河南岸派出所",
        "经度" : 114.429489,
        "维度" : 23.071937999999999,
        "地址" : "惠州市惠城区银岭路一横街与银岭路二横街一巷交叉口",
        "电话" : "(0752)2508322"
      }
    },
    {
      "type" : "Feature",
      "id" : 2,
      "geometry" : {
        "type" : "Point",
        "coordinates" : [
          114.419006,
          23.118003999999999
        ]
      },
      "properties" : {
        "FID" : 2,
        "名字" : "惠州市公安局(江北派出所)",
        "经度" : 114.419006,
        "维度" : 23.118003999999999,
        "地址" : "广东省惠州市惠城区文华一路8号",
        "电话" : "(0752)2802575"
      }
    },
    {
      "type" : "Feature",
      "id" : 3,
      "geometry" : {
        "type" : "Point",
        "coordinates" : [
          114.428443,
          23.127504999999999
        ]
      },
      "properties" : {
        "FID" : 3,
        "名字" : "云山派出所",
        "经度" : 114.428443,
        "维度" : 23.127504999999999,
        "地址" : "广东省惠州市惠城区旺岗路6-1号",
        "电话" : "(0752)2807955"
      }
    },
    {
      "type" : "Feature",
      "id" : 4,
      "geometry" : {
        "type" : "Point",
        "coordinates" : [
          114.428652,
          23.054219
        ]
      },
      "properties" : {
        "FID" : 4,
        "名字" : "马庄派出所",
        "经度" : 114.428652,
        "维度" : 23.054219,
        "地址" : "广东省惠州市惠城区演达四路9号",
        "电话" : "(0752)2500335"
      }
    },
    {
      "type" : "Feature",
      "id" : 5,
      "geometry" : {
        "type" : "Point",
        "coordinates" : [
          114.45242,
          22.988999
        ]
      },
      "properties" : {
        "FID" : 5,
        "名字" : "惠州市公安局三栋派出所",
        "经度" : 114.45242,
        "维度" : 22.988999,
        "地址" : "广东省惠州市惠城区三栋路89号",
        "电话" : "(0752)2596821"
      }
    },
    {
      "type" : "Feature",
      "id" : 6,
      "geometry" : {
        "type" : "Point",
        "coordinates" : [
          114.482809,
          22.992519999999999
        ]
      },
      "properties" : {
        "FID" : 6,
        "名字" : "演达派出所",
        "经度" : 114.482809,
        "维度" : 22.992519999999999,
        "地址" : "惠州市惠城区民祥路3号",
        "电话" : "(0752)2598110"
      }
    },
    {
      "type" : "Feature",
      "id" : 7,
      "geometry" : {
        "type" : "Point",
        "coordinates" : [
          114.410185,
          23.07612
        ]
      },
      "properties" : {
        "FID" : 7,
        "名字" : "惠州市公安局麦地派出所",
        "经度" : 114.410185,
        "维度" : 23.07612,
        "地址" : "惠州市惠城区麦地马庄路32号",
        "电话" : "(0752)2378119"
      }
    },
    {
      "type" : "Feature",
      "id" : 8,
      "geometry" : {
        "type" : "Point",
        "coordinates" : [
          114.44253399999999,
          23.098390999999999
        ]
      },
      "properties" : {
        "FID" : 8,
        "名字" : "东湖派出所(东平南路)",
        "经度" : 114.44253399999999,
        "维度" : 23.098390999999999,
        "地址" : "惠州市惠城区东平南路88号",
        "电话" : "(0752)2252555"
      }
    },
    {
      "type" : "Feature",
      "id" : 9,
      "geometry" : {
        "type" : "Point",
        "coordinates" : [
          114.44255699999999,
          23.098507000000001
        ]
      },
      "properties" : {
        "FID" : 9,
        "名字" : "桥东派出所",
        "经度" : 114.44255699999999,
        "维度" : 23.098507000000001,
        "地址" : "广东省惠州市惠城区东平南路88号",
        "电话" : " "
      }
    },
    {
      "type" : "Feature",
      "id" : 10,
      "geometry" : {
        "type" : "Point",
        "coordinates" : [
          114.38362600000001,
          23.094964999999998
        ]
      },
      "properties" : {
        "FID" : 10,
        "名字" : "惠州市公安局新村旅游派出所",
        "经度" : 114.38362600000001,
        "维度" : 23.094964999999998,
        "地址" : "惠州市惠城区新联路19号",
        "电话" : "(0752)2670110"
      }
    },
    {
      "type" : "Feature",
      "id" : 11,
      "geometry" : {
        "type" : "Point",
        "coordinates" : [
          114.399326,
          23.11345
        ]
      },
      "properties" : {
        "FID" : 11,
        "名字" : "惠州市公安局下角派出所",
        "经度" : 114.399326,
        "维度" : 23.11345,
        "地址" : "惠州市惠城区共建路与禾塘街交叉路口西侧(锦尚华庭南侧)",
        "电话" : "(0752)2236408"
      }
    },
    {
      "type" : "Feature",
      "id" : 12,
      "geometry" : {
        "type" : "Point",
        "coordinates" : [
          114.40322999999999,
          23.086565
        ]
      },
      "properties" : {
        "FID" : 12,
        "名字" : "惠州市公安局圆通桥派出所",
        "经度" : 114.40322999999999,
        "维度" : 23.086565,
        "地址" : "惠州市惠城区鹅岭北路21号",
        "电话" : "(0752)2120478,(0752)2126186"
      }
    },
    {
      "type" : "Feature",
      "id" : 13,
      "geometry" : {
        "type" : "Point",
        "coordinates" : [
          114.362376,
          23.027097000000001
        ]
      },
      "properties" : {
        "FID" : 13,
        "名字" : "惠州市公安局仲恺派出所口岸警务区",
        "经度" : 114.362376,
        "维度" : 23.027097000000001,
        "地址" : "和畅五路东8附近",
        "电话" : " "
      }
    },
    {
      "type" : "Feature",
      "id" : 14,
      "geometry" : {
        "type" : "Point",
        "coordinates" : [
          114.411681,
          23.098970000000001
        ]
      },
      "properties" : {
        "FID" : 14,
        "名字" : "惠州市公安局(桥西派出所)",
        "经度" : 114.411681,
        "维度" : 23.098970000000001,
        "地址" : "惠州市惠城区步行街五四路6号",
        "电话" : "(0752)2230447"
      }
    },
    {
      "type" : "Feature",
      "id" : 15,
      "geometry" : {
        "type" : "Point",
        "coordinates" : [
          114.436706,
          23.096442
        ]
      },
      "properties" : {
        "FID" : 15,
        "名字" : "惠州市公安局惠城区分局东湖派出所东平社区警务室",
        "经度" : 114.436706,
        "维度" : 23.096442,
        "地址" : "广东省惠州市惠城区惠州大道东平段32号附近",
        "电话" : " "
      }
    },
    {
      "type" : "Feature",
      "id" : 16,
      "geometry" : {
        "type" : "Point",
        "coordinates" : [
          114.421943,
          23.09506
        ]
      },
      "properties" : {
        "FID" : 16,
        "名字" : "水上派出所",
        "经度" : 114.421943,
        "维度" : 23.09506,
        "地址" : "水东东路5号",
        "电话" : " "
      }
    },
    {
      "type" : "Feature",
      "id" : 17,
      "geometry" : {
        "type" : "Point",
        "coordinates" : [
          114.426377,
          23.051233
        ]
      },
      "properties" : {
        "FID" : 17,
        "名字" : "惠州市公安局马庄派出所马庄村警务室",
        "经度" : 114.426377,
        "维度" : 23.051233,
        "地址" : "惠州市惠城区上一组五巷西50米",
        "电话" : " "
      }
    },
    {
      "type" : "Feature",
      "id" : 18,
      "geometry" : {
        "type" : "Point",
        "coordinates" : [
          114.414654,
          23.086545999999998
        ]
      },
      "properties" : {
        "FID" : 18,
        "名字" : "南坛派出所",
        "经度" : 114.414654,
        "维度" : 23.086545999999998,
        "地址" : "广东省惠州市惠城区南新路23-7号",
        "电话" : " "
      }
    },
    {
      "type" : "Feature",
      "id" : 19,
      "geometry" : {
        "type" : "Point",
        "coordinates" : [
          114.36983499999999,
          23.039784999999998
        ]
      },
      "properties" : {
        "FID" : 19,
        "名字" : "惠州市公安局仲恺分局惠新派出所松山警务室",
        "经度" : 114.36983499999999,
        "维度" : 23.039784999999998,
        "地址" : "广东省惠州市惠城区乐金路1号",
        "电话" : " "
      }
    },
    {
      "type" : "Feature",
      "id" : 20,
      "geometry" : {
        "type" : "Point",
        "coordinates" : [
          114.483216,
          23.08379
        ]
      },
      "properties" : {
        "FID" : 20,
        "名字" : "惠州市公安局惠城区分局马安派出所",
        "经度" : 114.483216,
        "维度" : 23.08379,
        "地址" : "广东省惠州市惠城区新乐二路惠州经济职业技术学院东侧约70米",
        "电话" : "(0752)3612002"
      }
    },
    {
      "type" : "Feature",
      "id" : 21,
      "geometry" : {
        "type" : "Point",
        "coordinates" : [
          114.367181,
          23.027000999999998
        ]
      },
      "properties" : {
        "FID" : 21,
        "名字" : "惠州市公安局惠新派出所惠台警务室",
        "经度" : 114.367181,
        "维度" : 23.027000999999998,
        "地址" : "惠州市惠城区长深高速惠州支线索尼精密部件(惠州)有限公司",
        "电话" : " "
      }
    },
    {
      "type" : "Feature",
      "id" : 22,
      "geometry" : {
        "type" : "Point",
        "coordinates" : [
          114.40342200000001,
          23.097999999999999
        ]
      },
      "properties" : {
        "FID" : 22,
        "名字" : "惠州市公安局(西湖派出所)",
        "经度" : 114.40342200000001,
        "维度" : 23.097999999999999,
        "地址" : "惠州市惠城区西湖风景区宝塔路1号",
        "电话" : "(0752)2120436"
      }
    },
    {
      "type" : "Feature",
      "id" : 23,
      "geometry" : {
        "type" : "Point",
        "coordinates" : [
          114.481393,
          23.080566000000001
        ]
      },
      "properties" : {
        "FID" : 23,
        "名字" : "惠州市公安局惠城区分局马安派出所惠阳高级中学警务室",
        "经度" : 114.481393,
        "维度" : 23.080566000000001,
        "地址" : "广东省惠州市惠城区育贤路广东惠阳高级中学高中部",
        "电话" : " "
      }
    },
    {
      "type" : "Feature",
      "id" : 24,
      "geometry" : {
        "type" : "Point",
        "coordinates" : [
          114.362205,
          23.045389
        ]
      },
      "properties" : {
        "FID" : 24,
        "名字" : "仲恺派出所三华工业平安岗",
        "经度" : 114.362205,
        "维度" : 23.045389,
        "地址" : "惠州市惠城区惠风五路1号",
        "电话" : " "
      }
    },
    {
      "type" : "Feature",
      "id" : 25,
      "geometry" : {
        "type" : "Point",
        "coordinates" : [
          114.460685,
          23.108176
        ]
      },
      "properties" : {
        "FID" : 25,
        "名字" : "惠州市公安局惠城区分局水口派出所龙湖社区警务室",
        "经度" : 114.460685,
        "维度" : 23.108176,
        "地址" : "惠州市惠城区",
        "电话" : " "
      }
    },
    {
      "type" : "Feature",
      "id" : 26,
      "geometry" : {
        "type" : "Point",
        "coordinates" : [
          114.435579,
          23.090098999999999
        ]
      },
      "properties" : {
        "FID" : 26,
        "名字" : "惠州市公安局惠城区分局桥东派出所东河社区警务室",
        "经度" : 114.435579,
        "维度" : 23.090098999999999,
        "地址" : "惠州市惠城区东湖北路1层附近",
        "电话" : " "
      }
    },
    {
      "type" : "Feature",
      "id" : 27,
      "geometry" : {
        "type" : "Point",
        "coordinates" : [
          114.43442899999999,
          23.088718
        ]
      },
      "properties" : {
        "FID" : 27,
        "名字" : "旧东湖派出所",
        "经度" : 114.43442899999999,
        "维度" : 23.088718,
        "地址" : "广东省惠州市惠城区东湖中路48号",
        "电话" : " "
      }
    },
    {
      "type" : "Feature",
      "id" : 28,
      "geometry" : {
        "type" : "Point",
        "coordinates" : [
          114.334045,
          23.003404
        ]
      },
      "properties" : {
        "FID" : 28,
        "名字" : "陈江派出所",
        "经度" : 114.334045,
        "维度" : 23.003404,
        "地址" : "惠州市惠城区华盛东街与金湖南路交叉路口往西南约50米",
        "电话" : " "
      }
    },
    {
      "type" : "Feature",
      "id" : 29,
      "geometry" : {
        "type" : "Point",
        "coordinates" : [
          114.43018499999999,
          23.112065999999999
        ]
      },
      "properties" : {
        "FID" : 29,
        "名字" : "惠州市公安局惠城区分局江北派出所水北社区警务室",
        "经度" : 114.43018499999999,
        "维度" : 23.112065999999999,
        "地址" : "广东省惠州市惠城区期湖塘路8西南90米",
        "电话" : " "
      }
    },
    {
      "type" : "Feature",
      "id" : 30,
      "geometry" : {
        "type" : "Point",
        "coordinates" : [
          114.489993,
          23.074280000000002
        ]
      },
      "properties" : {
        "FID" : 30,
        "名字" : "马安派出所警务室",
        "经度" : 114.489993,
        "维度" : 23.074280000000002,
        "地址" : "广东省惠州市惠城区群乐路海天工业园西南侧约260米",
        "电话" : " "
      }
    },
    {
      "type" : "Feature",
      "id" : 31,
      "geometry" : {
        "type" : "Point",
        "coordinates" : [
          114.423512,
          23.080255999999999
        ]
      },
      "properties" : {
        "FID" : 31,
        "名字" : "河南岸派出所石桥社区警务室",
        "经度" : 114.423512,
        "维度" : 23.080255999999999,
        "地址" : "石桥街4号",
        "电话" : " "
      }
    },
    {
      "type" : "Feature",
      "id" : 32,
      "geometry" : {
        "type" : "Point",
        "coordinates" : [
          114.489504,
          22.995218999999999
        ]
      },
      "properties" : {
        "FID" : 32,
        "名字" : "惠州市公安局仲恺高新区分局演达派出所一居一警工作室",
        "经度" : 114.489504,
        "维度" : 22.995218999999999,
        "地址" : "惠州市惠城区紫溪路惠科华府",
        "电话" : " "
      }
    },
    {
      "type" : "Feature",
      "id" : 33,
      "geometry" : {
        "type" : "Point",
        "coordinates" : [
          114.46585,
          23.042031999999999
        ]
      },
      "properties" : {
        "FID" : 33,
        "名字" : "惠州市公安局惠城区分局三栋派出所竹仔园警务室",
        "经度" : 114.46585,
        "维度" : 23.042031999999999,
        "地址" : "四环南路与459乡道交叉口北100米",
        "电话" : " "
      }
    },
    {
      "type" : "Feature",
      "id" : 34,
      "geometry" : {
        "type" : "Point",
        "coordinates" : [
          114.334051,
          23.003487
        ]
      },
      "properties" : {
        "FID" : 34,
        "名字" : "陈江派出所第二警务区",
        "经度" : 114.334051,
        "维度" : 23.003487,
        "地址" : "惠州市惠城区陈江镇华盛东街98号",
        "电话" : " "
      }
    },
    {
      "type" : "Feature",
      "id" : 35,
      "geometry" : {
        "type" : "Point",
        "coordinates" : [
          114.334011,
          23.003475999999999
        ]
      },
      "properties" : {
        "FID" : 35,
        "名字" : "惠州市公安局陈江派出所第二社区子永警务室",
        "经度" : 114.334011,
        "维度" : 23.003475999999999,
        "地址" : "惠州市惠城区华盛东街98号",
        "电话" : " "
      }
    },
    {
      "type" : "Feature",
      "id" : 36,
      "geometry" : {
        "type" : "Point",
        "coordinates" : [
          114.392022,
          23.121426
        ]
      },
      "properties" : {
        "FID" : 36,
        "名字" : "梅湖派出所",
        "经度" : 114.392022,
        "维度" : 23.121426,
        "地址" : "惠州市惠城区下角西路18号",
        "电话" : "(0752)2204393"
      }
    },
    {
      "type" : "Feature",
      "id" : 37,
      "geometry" : {
        "type" : "Point",
        "coordinates" : [
          114.32906800000001,
          23.027982999999999
        ]
      },
      "properties" : {
        "FID" : 37,
        "名字" : "惠州市公安局仲恺分局陈江派出所驻仲恺法庭警务室",
        "经度" : 114.32906800000001,
        "维度" : 23.027982999999999,
        "地址" : "惠州市惠城区陈江大道北惠城区人民法院仲恺高新区人民法庭",
        "电话" : " "
      }
    },
    {
      "type" : "Feature",
      "id" : 38,
      "geometry" : {
        "type" : "Point",
        "coordinates" : [
          114.439223,
          23.126543999999999
        ]
      },
      "properties" : {
        "FID" : 38,
        "名字" : "惠州市公安局惠城区分局云山派出所望江社区警务室",
        "经度" : 114.439223,
        "维度" : 23.126543999999999,
        "地址" : "惠州市惠城区江汝路与过沥路交叉口西北150米",
        "电话" : " "
      }
    },
    {
      "type" : "Feature",
      "id" : 39,
      "geometry" : {
        "type" : "Point",
        "coordinates" : [
          114.507482,
          23.051607000000001
        ]
      },
      "properties" : {
        "FID" : 39,
        "名字" : "惠州市公安局马安派出所",
        "经度" : 114.507482,
        "维度" : 23.051607000000001,
        "地址" : "广东省惠州市惠城区马安镇泰安路56",
        "电话" : " "
      }
    },
    {
      "type" : "Feature",
      "id" : 40,
      "geometry" : {
        "type" : "Point",
        "coordinates" : [
          114.32279200000001,
          23.016041000000001
        ]
      },
      "properties" : {
        "FID" : 40,
        "名字" : "陈江派出所(第三社区警务室)",
        "经度" : 114.32279200000001,
        "维度" : 23.016041000000001,
        "地址" : "广东省惠州市惠城区松岗街二巷与松岗街三巷交叉口南50米",
        "电话" : " "
      }
    },
    {
      "type" : "Feature",
      "id" : 41,
      "geometry" : {
        "type" : "Point",
        "coordinates" : [
          114.413175,
          23.090140000000002
        ]
      },
      "properties" : {
        "FID" : 41,
        "名字" : "惠州市公安局惠城区分局南坛派出所紫西岭社区警务室",
        "经度" : 114.413175,
        "维度" : 23.090140000000002,
        "地址" : "惠州市惠城区",
        "电话" : " "
      }
    },
    {
      "type" : "Feature",
      "id" : 42,
      "geometry" : {
        "type" : "Point",
        "coordinates" : [
          114.420569,
          23.067221
        ]
      },
      "properties" : {
        "FID" : 42,
        "名字" : "河南岸派出所牛和地社区警务室",
        "经度" : 114.420569,
        "维度" : 23.067221,
        "地址" : "广东省惠州市惠城区演达大道26",
        "电话" : " "
      }
    },
    {
      "type" : "Feature",
      "id" : 43,
      "geometry" : {
        "type" : "Point",
        "coordinates" : [
          114.40319100000001,
          23.086596
        ]
      },
      "properties" : {
        "FID" : 43,
        "名字" : "惠州市公安局圆通桥派出所户籍室",
        "经度" : 114.40319100000001,
        "维度" : 23.086596,
        "地址" : "广东省惠州市惠城区鹅岭北路与丰湖二街交叉口东20米",
        "电话" : " "
      }
    },
    {
      "type" : "Feature",
      "id" : 44,
      "geometry" : {
        "type" : "Point",
        "coordinates" : [
          114.368251,
          23.101302
        ]
      },
      "properties" : {
        "FID" : 44,
        "名字" : "惠州市公安局森林分局惠城派出所",
        "经度" : 114.368251,
        "维度" : 23.101302,
        "地址" : "惠州市惠城区永联路1号",
        "电话" : " "
      }
    },
    {
      "type" : "Feature",
      "id" : 45,
      "geometry" : {
        "type" : "Point",
        "coordinates" : [
          114.396806,
          23.083051000000001
        ]
      },
      "properties" : {
        "FID" : 45,
        "名字" : "新村派出所八中警务室",
        "经度" : 114.396806,
        "维度" : 23.083051000000001,
        "地址" : "惠州市惠城区龙丰路2号",
        "电话" : " "
      }
    },
    {
      "type" : "Feature",
      "id" : 46,
      "geometry" : {
        "type" : "Point",
        "coordinates" : [
          114.33403,
          23.003418
        ]
      },
      "properties" : {
        "FID" : 46,
        "名字" : "陈江派出所第二治安防控室",
        "经度" : 114.33403,
        "维度" : 23.003418,
        "地址" : "广东省惠州市惠城区华盛东街86号",
        "电话" : " "
      }
    },
    {
      "type" : "Feature",
      "id" : 47,
      "geometry" : {
        "type" : "Point",
        "coordinates" : [
          114.323021,
          23.016190000000002
        ]
      },
      "properties" : {
        "FID" : 47,
        "名字" : "陈江派出所第一治安防控室",
        "经度" : 114.323021,
        "维度" : 23.016190000000002,
        "地址" : "松岗街二巷与甲子路交叉口东100米",
        "电话" : " "
      }
    },
    {
      "type" : "Feature",
      "id" : 48,
      "geometry" : {
        "type" : "Point",
        "coordinates" : [
          114.46317500000001,
          23.079487
        ]
      },
      "properties" : {
        "FID" : 48,
        "名字" : "公安局东湖派出所校园警务室",
        "经度" : 114.46317500000001,
        "维度" : 23.079487,
        "地址" : "惠州市惠城区旭日二路g40乡附近",
        "电话" : " "
      }
    },
    {
      "type" : "Feature",
      "id" : 49,
      "geometry" : {
        "type" : "Point",
        "coordinates" : [
          114.457419,
          23.091429999999999
        ]
      },
      "properties" : {
        "FID" : 49,
        "名字" : "水口派出所湖溪警务室",
        "经度" : 114.457419,
        "维度" : 23.091429999999999,
        "地址" : "惠州市惠城区湖溪大道3号附近",
        "电话" : " "
      }
    },
    {
      "type" : "Feature",
      "id" : 50,
      "geometry" : {
        "type" : "Point",
        "coordinates" : [
          114.368089,
          23.096398000000001
        ]
      },
      "properties" : {
        "FID" : 50,
        "名字" : "新村派出所共联社区警务室",
        "经度" : 114.368089,
        "维度" : 23.096398000000001,
        "地址" : "惠州市惠城区永联路南西城公馆西北侧约90米",
        "电话" : " "
      }
    },
    {
      "type" : "Feature",
      "id" : 51,
      "geometry" : {
        "type" : "Point",
        "coordinates" : [
          114.408205,
          23.081529
        ]
      },
      "properties" : {
        "FID" : 51,
        "名字" : "南坛派出所第二警务区",
        "经度" : 114.408205,
        "维度" : 23.081529,
        "地址" : "惠州市惠城区麦地路9号",
        "电话" : " "
      }
    },
    {
      "type" : "Feature",
      "id" : 52,
      "geometry" : {
        "type" : "Point",
        "coordinates" : [
          114.398982,
          23.112030000000001
        ]
      },
      "properties" : {
        "FID" : 52,
        "名字" : "下角派出所治安巡逻点",
        "经度" : 114.398982,
        "维度" : 23.112030000000001,
        "地址" : "广东省惠州市惠城区青年路惠州市第三中学东侧约40米",
        "电话" : " "
      }
    },
    {
      "type" : "Feature",
      "id" : 53,
      "geometry" : {
        "type" : "Point",
        "coordinates" : [
          114.427978,
          23.055782000000001
        ]
      },
      "properties" : {
        "FID" : 53,
        "名字" : "马庄派出所惠州市第一妇幼保健院警务室",
        "经度" : 114.427978,
        "维度" : 23.055782000000001,
        "地址" : "惠州市惠城区演达三路惠州市第一妇幼保健院",
        "电话" : " "
      }
    },
    {
      "type" : "Feature",
      "id" : 54,
      "geometry" : {
        "type" : "Point",
        "coordinates" : [
          114.378913,
          23.081254999999999
        ]
      },
      "properties" : {
        "FID" : 54,
        "名字" : "惠州市公安局新村旅游派出所景区警务室",
        "经度" : 114.378913,
        "维度" : 23.081254999999999,
        "地址" : "惠州市惠城区龙丰上排红花湖路92号红花湖景区红花湖景区内",
        "电话" : " "
      }
    },
    {
      "type" : "Feature",
      "id" : 55,
      "geometry" : {
        "type" : "Point",
        "coordinates" : [
          114.412753,
          23.100643999999999
        ]
      },
      "properties" : {
        "FID" : 55,
        "名字" : "桥西派出所北门社区警务室",
        "经度" : 114.412753,
        "维度" : 23.100643999999999,
        "地址" : "惠州市惠城区中山北路68号",
        "电话" : " "
      }
    },
    {
      "type" : "Feature",
      "id" : 56,
      "geometry" : {
        "type" : "Point",
        "coordinates" : [
          114.36943100000001,
          23.098261999999998
        ]
      },
      "properties" : {
        "FID" : 56,
        "名字" : "广州铁路公安局惠州公安处(惠州西车站派出所)",
        "经度" : 114.36943100000001,
        "维度" : 23.098261999999998,
        "地址" : "广东省惠州市惠城区永通路3号惠州火车西站前个广场东北方向90米",
        "电话" : " "
      }
    },
    {
      "type" : "Feature",
      "id" : 57,
      "geometry" : {
        "type" : "Point",
        "coordinates" : [
          114.412811,
          23.100708000000001
        ]
      },
      "properties" : {
        "FID" : 57,
        "名字" : "惠州市公安局惠城区分局桥西派出所北门社区",
        "经度" : 114.412811,
        "维度" : 23.100708000000001,
        "地址" : "惠州市惠城区中山北路与公园路交叉口北50米",
        "电话" : " "
      }
    },
    {
      "type" : "Feature",
      "id" : 58,
      "geometry" : {
        "type" : "Point",
        "coordinates" : [
          114.416659,
          23.089300000000001
        ]
      },
      "properties" : {
        "FID" : 58,
        "名字" : "荔苑警务区",
        "经度" : 114.416659,
        "维度" : 23.089300000000001,
        "地址" : "惠州市惠城区西堤路28号",
        "电话" : " "
      }
    },
    {
      "type" : "Feature",
      "id" : 59,
      "geometry" : {
        "type" : "Point",
        "coordinates" : [
          114.408435,
          23.081451000000001
        ]
      },
      "properties" : {
        "FID" : 59,
        "名字" : "公安派出所南湖警务室",
        "经度" : 114.408435,
        "维度" : 23.081451000000001,
        "地址" : "惠州市惠城区麦地路13号附近",
        "电话" : " "
      }
    },
    {
      "type" : "Feature",
      "id" : 60,
      "geometry" : {
        "type" : "Point",
        "coordinates" : [
          114.451579,
          23.089348999999999
        ]
      },
      "properties" : {
        "FID" : 60,
        "名字" : "东湖派出所校园警务室",
        "经度" : 114.451579,
        "维度" : 23.089348999999999,
        "地址" : "新开河桥长湖南路惠州市长湖苑小学附近",
        "电话" : " "
      }
    },
    {
      "type" : "Feature",
      "id" : 61,
      "geometry" : {
        "type" : "Point",
        "coordinates" : [
          114.468385,
          23.111792999999999
        ]
      },
      "properties" : {
        "FID" : 61,
        "名字" : "惠州市公安局水口派出所户籍室",
        "经度" : 114.468385,
        "维度" : 23.111792999999999,
        "地址" : "广东省惠州市惠城区平安路27号",
        "电话" : " "
      }
    },
    {
      "type" : "Feature",
      "id" : 62,
      "geometry" : {
        "type" : "Point",
        "coordinates" : [
          114.397097,
          23.083147
        ]
      },
      "properties" : {
        "FID" : 62,
        "名字" : "惠州市公安局新村派出所巡逻执勤点",
        "经度" : 114.397097,
        "维度" : 23.083147,
        "地址" : "惠州市惠城区侨苑街与龙丰路交叉口东北50米",
        "电话" : " "
      }
    },
    {
      "type" : "Feature",
      "id" : 63,
      "geometry" : {
        "type" : "Point",
        "coordinates" : [
          114.359202,
          23.043151999999999
        ]
      },
      "properties" : {
        "FID" : 63,
        "名字" : "仲恺公安分局惠新派出所执勤点",
        "经度" : 114.359202,
        "维度" : 23.043151999999999,
        "地址" : "广东省惠州市惠城区金岭路与和畅四路交叉口西北角",
        "电话" : "(0752)2600411"
      }
    },
    {
      "type" : "Feature",
      "id" : 64,
      "geometry" : {
        "type" : "Point",
        "coordinates" : [
          114.48320699999999,
          23.08379
        ]
      },
      "properties" : {
        "FID" : 64,
        "名字" : "惠州市公安局惠城区分局马安派出所驻三强线路巡防工作站",
        "经度" : 114.48320699999999,
        "维度" : 23.08379,
        "地址" : "广东省惠州市惠城区新乐二路广东惠阳高级中学(高中部)北侧约90米",
        "电话" : " "
      }
    },
    {
      "type" : "Feature",
      "id" : 65,
      "geometry" : {
        "type" : "Point",
        "coordinates" : [
          114.370617,
          23.046150000000001
        ]
      },
      "properties" : {
        "FID" : 65,
        "名字" : "仲恺派出所松山下村治安岗亭",
        "经度" : 114.370617,
        "维度" : 23.046150000000001,
        "地址" : "惠州市惠城区和畅二路与惠风四路交叉口北200米",
        "电话" : " "
      }
    },
    {
      "type" : "Feature",
      "id" : 66,
      "geometry" : {
        "type" : "Point",
        "coordinates" : [
          114.40314600000001,
          23.067029000000002
        ]
      },
      "properties" : {
        "FID" : 66,
        "名字" : "惠城区公安分局圆通桥派出所治安执勤点",
        "经度" : 114.40314600000001,
        "维度" : 23.067029000000002,
        "地址" : "大岭路与鹅岭南路交叉口西南200米",
        "电话" : " "
      }
    },
    {
      "type" : "Feature",
      "id" : 67,
      "geometry" : {
        "type" : "Point",
        "coordinates" : [
          114.44695,
          23.030303
        ]
      },
      "properties" : {
        "FID" : 67,
        "名字" : "惠州市公安局马庄派出所执勤点",
        "经度" : 114.44695,
        "维度" : 23.030303,
        "地址" : "体育南路南50米",
        "电话" : " "
      }
    },
    {
      "type" : "Feature",
      "id" : 68,
      "geometry" : {
        "type" : "Point",
        "coordinates" : [
          114.458359,
          23.105815
        ]
      },
      "properties" : {
        "FID" : 68,
        "名字" : "惠州市公安局水口派出所社区工作站",
        "经度" : 114.458359,
        "维度" : 23.105815,
        "地址" : "同福北路22号附近",
        "电话" : " "
      }
    },
    {
      "type" : "Feature",
      "id" : 69,
      "geometry" : {
        "type" : "Point",
        "coordinates" : [
          114.369585,
          23.039591999999999
        ]
      },
      "properties" : {
        "FID" : 69,
        "名字" : "惠新派出所松山下村治安岗亭",
        "经度" : 114.369585,
        "维度" : 23.039591999999999,
        "地址" : "惠州市惠城区惠风三路华日城市理想西南侧约100米",
        "电话" : " "
      }
    },
    {
      "type" : "Feature",
      "id" : 70,
      "geometry" : {
        "type" : "Point",
        "coordinates" : [
          114.403361,
          23.065217000000001
        ]
      },
      "properties" : {
        "FID" : 70,
        "名字" : "古塘坳派出所口岸警务区",
        "经度" : 114.403361,
        "维度" : 23.065217000000001,
        "地址" : "惠州市惠城区口岸路5号附近",
        "电话" : " "
      }
    },
    {
      "type" : "Feature",
      "id" : 71,
      "geometry" : {
        "type" : "Point",
        "coordinates" : [
          114.41522999999999,
          23.067979999999999
        ]
      },
      "properties" : {
        "FID" : 71,
        "名字" : "河南岸派出所治安巡逻点",
        "经度" : 114.41522999999999,
        "维度" : 23.067979999999999,
        "地址" : "惠州市惠城区麦地南路33号河南岸派出所",
        "电话" : " "
      }
    },
    {
      "type" : "Feature",
      "id" : 72,
      "geometry" : {
        "type" : "Point",
        "coordinates" : [
          114.413723,
          23.086492
        ]
      },
      "properties" : {
        "FID" : 72,
        "名字" : "南坛派出所执勤点",
        "经度" : 114.413723,
        "维度" : 23.086492,
        "地址" : "广东省惠州市惠城区南新路南坛小学",
        "电话" : " "
      }
    }
  ]
}